{
  "type": "FeatureCollection",
  "features": [
    {
      "type": "Feature",
      "geometry": {
        "type": "Point",
        "coordinates": [
          -66.92094,
          52.977947
        ]
      },
      "properties": {
        "id": "1",
        "name": "Smokey Mountain Ski Club",
        "region_id": "335",
        "region": "Newfoundland and Labrador"
      }
    },
    {
      "type": "Feature",
      "geometry": {
        "type": "Point",
        "coordinates": [
          -64.020094,
          53.52358
        ]
      },
      "properties": {
        "id": "2",
        "name": "Northern Lights Ski Club",
        "region_id": "335",
        "region": "Newfoundland and Labrador"
      }
    },
    {
      "type": "Feature",
      "geometry": {
        "type": "Point",
        "coordinates": [
          -54.046468,
          48.161777
        ]
      },
      "properties": {
        "id": "3",
        "name": "White Hills",
        "region_id": "335",
        "region": "Newfoundland and Labrador"
      }
    },
    {
      "type": "Feature",
      "geometry": {
        "type": "Point",
        "coordinates": [
          -60.425457,
          53.409742
        ]
      },
      "properties": {
        "id": "4",
        "name": "Snow Goose Mountain (Mont Shana)",
        "region_id": "335",
        "region": "Newfoundland and Labrador"
      }
    },
    {
      "type": "Feature",
      "geometry": {
        "type": "Point",
        "coordinates": [
          -57.827222222222,
          48.936666666667
        ]
      },
      "properties": {
        "id": "5",
        "name": "Marble Mountain",
        "region_id": "335",
        "region": "Newfoundland and Labrador"
      }
    },
    {
      "type": "Feature",
      "geometry": {
        "type": "Point",
        "coordinates": [
          -113.556683063507,
          53.4842024615732
        ]
      },
      "properties": {
        "id": "6",
        "name": "Snow Valley Ski Club",
        "region_id": "334",
        "region": "Alberta"
      }
    },
    {
      "type": "Feature",
      "geometry": {
        "type": "Point",
        "coordinates": [
          -110.019149780273,
          54.4400994648045
        ]
      },
      "properties": {
        "id": "7",
        "name": "Kinosoo Ridge",
        "region_id": "334",
        "region": "Alberta"
      }
    },
    {
      "type": "Feature",
      "geometry": {
        "type": "Point",
        "coordinates": [
          -118.10078236972,
          52.798588378277
        ]
      },
      "properties": {
        "id": "8",
        "name": "Marmot Basin",
        "region_id": "334",
        "region": "Alberta"
      }
    },
    {
      "type": "Feature",
      "geometry": {
        "type": "Point",
        "coordinates": [
          -115.17152563367,
          50.947773770583
        ]
      },
      "properties": {
        "id": "9",
        "name": "Nakiska Ski Resort",
        "region_id": "334",
        "region": "Alberta"
      }
    },
    {
      "type": "Feature",
      "geometry": {
        "type": "Point",
        "coordinates": [
          -115.77390455793,
          51.08611777439
        ]
      },
      "properties": {
        "id": "10",
        "name": "Sunshine Village",
        "region_id": "334",
        "region": "Alberta"
      }
    },
    {
      "type": "Feature",
      "geometry": {
        "type": "Point",
        "coordinates": [
          -113.672018051147,
          53.3811269497706
        ]
      },
      "properties": {
        "id": "11",
        "name": "Rabbit Hill Ski and Snowboard Center",
        "region_id": "334",
        "region": "Alberta"
      }
    },
    {
      "type": "Feature",
      "geometry": {
        "type": "Point",
        "coordinates": [
          -113.372468948364,
          53.5645280712511
        ]
      },
      "properties": {
        "id": "12",
        "name": "Sunridge Ski Area",
        "region_id": "334",
        "region": "Alberta"
      }
    },
    {
      "type": "Feature",
      "geometry": {
        "type": "Point",
        "coordinates": [
          -116.567859649658,
          53.893212181825
        ]
      },
      "properties": {
        "id": "13",
        "name": "Silver Summit",
        "region_id": "334",
        "region": "Alberta"
      }
    },
    {
      "type": "Feature",
      "geometry": {
        "type": "Point",
        "coordinates": [
          -115.199031829834,
          50.8245355553757
        ]
      },
      "properties": {
        "id": "14",
        "name": "Fortress (Snowridge)",
        "region_id": "334",
        "region": "Alberta"
      }
    },
    {
      "type": "Feature",
      "geometry": {
        "type": "Point",
        "coordinates": [
          -110.260848999023,
          49.6565718402243
        ]
      },
      "properties": {
        "id": "15",
        "name": "Hidden Valley",
        "region_id": "334",
        "region": "Alberta"
      }
    },
    {
      "type": "Feature",
      "geometry": {
        "type": "Point",
        "coordinates": [
          -115.6053711919,
          51.206218724672
        ]
      },
      "properties": {
        "id": "16",
        "name": "Mount Norquay",
        "region_id": "334",
        "region": "Alberta"
      }
    },
    {
      "type": "Feature",
      "geometry": {
        "type": "Point",
        "coordinates": [
          -118.859689235687,
          55.0607855921448
        ]
      },
      "properties": {
        "id": "17",
        "name": "Nitehawk Ski Hill",
        "region_id": "334",
        "region": "Alberta"
      }
    },
    {
      "type": "Feature",
      "geometry": {
        "type": "Point",
        "coordinates": [
          -114.42647097722,
          49.315355179835
        ]
      },
      "properties": {
        "id": "18",
        "name": "Castle Mountain Resort",
        "region_id": "334",
        "region": "Alberta"
      }
    },
    {
      "type": "Feature",
      "geometry": {
        "type": "Point",
        "coordinates": [
          -113.682832717896,
          52.3047000653693
        ]
      },
      "properties": {
        "id": "19",
        "name": "Canyon Ski Resort (Ski Red Deer)",
        "region_id": "334",
        "region": "Alberta"
      }
    },
    {
      "type": "Feature",
      "geometry": {
        "type": "Point",
        "coordinates": [
          -113.47527777778,
          53.533611111111
        ]
      },
      "properties": {
        "id": "20",
        "name": "Edmonton Ski Club",
        "region_id": "334",
        "region": "Alberta"
      }
    },
    {
      "type": "Feature",
      "geometry": {
        "type": "Point",
        "coordinates": [
          -114.21583333333,
          51.079722222222
        ]
      },
      "properties": {
        "id": "21",
        "name": "Canada Olympic Park",
        "region_id": "334",
        "region": "Alberta"
      }
    },
    {
      "type": "Feature",
      "geometry": {
        "type": "Point",
        "coordinates": [
          -116.12743053131,
          51.448275777989
        ]
      },
      "properties": {
        "id": "22",
        "name": "Lake Louise",
        "region_id": "334",
        "region": "Alberta"
      }
    },
    {
      "type": "Feature",
      "geometry": {
        "type": "Point",
        "coordinates": [
          -104.460926055908,
          53.2352219916111
        ]
      },
      "properties": {
        "id": "23",
        "name": "Wapiti Valley",
        "region_id": "333",
        "region": "Saskatchewan"
      }
    },
    {
      "type": "Feature",
      "geometry": {
        "type": "Point",
        "coordinates": [
          -108.605346679688,
          52.8154206989343
        ]
      },
      "properties": {
        "id": "24",
        "name": "Table Mountain",
        "region_id": "333",
        "region": "Saskatchewan"
      }
    },
    {
      "type": "Feature",
      "geometry": {
        "type": "Point",
        "coordinates": [
          -103.778743743896,
          50.754486318336
        ]
      },
      "properties": {
        "id": "25",
        "name": "Mission Ridge Winter Park",
        "region_id": "333",
        "region": "Saskatchewan"
      }
    },
    {
      "type": "Feature",
      "geometry": {
        "type": "Point",
        "coordinates": [
          -108.49451780319,
          51.677105941083
        ]
      },
      "properties": {
        "id": "26",
        "name": "Prairie West Terminal Snow Park (Twin Towers)",
        "region_id": "333",
        "region": "Saskatchewan"
      }
    },
    {
      "type": "Feature",
      "geometry": {
        "type": "Point",
        "coordinates": [
          -63.410265,
          46.282508
        ]
      },
      "properties": {
        "id": "27",
        "name": "Brookvale Provincial Park",
        "region_id": "332",
        "region": "Prince Edward Island"
      }
    },
    {
      "type": "Feature",
      "geometry": {
        "type": "Point",
        "coordinates": [
          -122.92857038604,
          50.091354990305
        ]
      },
      "properties": {
        "id": "28",
        "name": "Whistler Blackcomb (Garibaldi Lift Co.)",
        "region_id": "331",
        "region": "British Columbia"
      }
    },
    {
      "type": "Feature",
      "geometry": {
        "type": "Point",
        "coordinates": [
          -125.29947329937,
          49.747385876698
        ]
      },
      "properties": {
        "id": "29",
        "name": "Mount Washington Alpine Resort",
        "region_id": "331",
        "region": "British Columbia"
      }
    },
    {
      "type": "Feature",
      "geometry": {
        "type": "Point",
        "coordinates": [
          -115.10197947689,
          49.457354130236
        ]
      },
      "properties": {
        "id": "30",
        "name": "Fernie Alpine Resort",
        "region_id": "331",
        "region": "British Columbia"
      }
    },
    {
      "type": "Feature",
      "geometry": {
        "type": "Point",
        "coordinates": [
          -124.20970916748,
          54.5187898757911
        ]
      },
      "properties": {
        "id": "31",
        "name": "Murray Ridge",
        "region_id": "331",
        "region": "British Columbia"
      }
    },
    {
      "type": "Feature",
      "geometry": {
        "type": "Point",
        "coordinates": [
          -118.1256089504,
          50.961585282842
        ]
      },
      "properties": {
        "id": "32",
        "name": "Revelstoke Mountain Resort (Powder Springs)",
        "region_id": "331",
        "region": "British Columbia"
      }
    },
    {
      "type": "Feature",
      "geometry": {
        "type": "Point",
        "coordinates": [
          -117.300510406494,
          49.186303725305
        ]
      },
      "properties": {
        "id": "33",
        "name": "Salmo Ski Area",
        "region_id": "331",
        "region": "British Columbia"
      }
    },
    {
      "type": "Feature",
      "geometry": {
        "type": "Point",
        "coordinates": [
          -122.454299926758,
          53.9439629965073
        ]
      },
      "properties": {
        "id": "34",
        "name": "Tabor Mountain",
        "region_id": "331",
        "region": "British Columbia"
      }
    },
    {
      "type": "Feature",
      "geometry": {
        "type": "Point",
        "coordinates": [
          -117.615144252777,
          50.1460238220552
        ]
      },
      "properties": {
        "id": "35",
        "name": "Summit Lake",
        "region_id": "331",
        "region": "British Columbia"
      }
    },
    {
      "type": "Feature",
      "geometry": {
        "type": "Point",
        "coordinates": [
          -119.88597127442017,
          50.88509127048632
        ]
      },
      "properties": {
        "id": "36",
        "name": "Sun Peaks Resort",
        "region_id": "331",
        "region": "British Columbia"
      }
    },
    {
      "type": "Feature",
      "geometry": {
        "type": "Point",
        "coordinates": [
          -119.235305786133,
          49.1529696561704
        ]
      },
      "properties": {
        "id": "37",
        "name": "Mt. Baldy Family Ski Area",
        "region_id": "331",
        "region": "British Columbia"
      }
    },
    {
      "type": "Feature",
      "geometry": {
        "type": "Point",
        "coordinates": [
          -127.26184844971,
          54.77128618359
        ]
      },
      "properties": {
        "id": "38",
        "name": "Ski Smithers (Hudson Bay Mountain)",
        "region_id": "331",
        "region": "British Columbia"
      }
    },
    {
      "type": "Feature",
      "geometry": {
        "type": "Point",
        "coordinates": [
          -116.009616851807,
          49.6870669231854
        ]
      },
      "properties": {
        "id": "39",
        "name": "Kimberley Alpine Resort",
        "region_id": "331",
        "region": "British Columbia"
      }
    },
    {
      "type": "Feature",
      "geometry": {
        "type": "Point",
        "coordinates": [
          -117.06663856128,
          51.286431076078
        ]
      },
      "properties": {
        "id": "40",
        "name": "Kicking Horse (Whitetooth)",
        "region_id": "331",
        "region": "British Columbia"
      }
    },
    {
      "type": "Feature",
      "geometry": {
        "type": "Point",
        "coordinates": [
          -117.84124279161,
          49.101448269987
        ]
      },
      "properties": {
        "id": "41",
        "name": "Red Mountain Resort",
        "region_id": "331",
        "region": "British Columbia"
      }
    },
    {
      "type": "Feature",
      "geometry": {
        "type": "Point",
        "coordinates": [
          -120.91604232788,
          49.068018007324
        ]
      },
      "properties": {
        "id": "42",
        "name": "Manning Park Resort",
        "region_id": "331",
        "region": "British Columbia"
      }
    },
    {
      "type": "Feature",
      "geometry": {
        "type": "Point",
        "coordinates": [
          -122.94473140066,
          49.371703383095
        ]
      },
      "properties": {
        "id": "43",
        "name": "Mount Seymour",
        "region_id": "331",
        "region": "British Columbia"
      }
    },
    {
      "type": "Feature",
      "geometry": {
        "type": "Point",
        "coordinates": [
          -119.04756419693,
          50.374526005244
        ]
      },
      "properties": {
        "id": "44",
        "name": "Silver Star Mountain Resort",
        "region_id": "331",
        "region": "British Columbia"
      }
    },
    {
      "type": "Feature",
      "geometry": {
        "type": "Point",
        "coordinates": [
          -122.610855102539,
          55.3639906650811
        ]
      },
      "properties": {
        "id": "45",
        "name": "Powder King",
        "region_id": "331",
        "region": "British Columbia"
      }
    },
    {
      "type": "Feature",
      "geometry": {
        "type": "Point",
        "coordinates": [
          -116.22459981596,
          50.442417862094
        ]
      },
      "properties": {
        "id": "46",
        "name": "Panorama Mountain Village",
        "region_id": "331",
        "region": "British Columbia"
      }
    },
    {
      "type": "Feature",
      "geometry": {
        "type": "Point",
        "coordinates": [
          -115.826282501221,
          50.3385584502358
        ]
      },
      "properties": {
        "id": "47",
        "name": "Fairmont Hot Springs Resort",
        "region_id": "331",
        "region": "British Columbia"
      }
    },
    {
      "type": "Feature",
      "geometry": {
        "type": "Point",
        "coordinates": [
          -121.884727478027,
          53.9003938315946
        ]
      },
      "properties": {
        "id": "48",
        "name": "Purden Ski Village",
        "region_id": "331",
        "region": "British Columbia"
      }
    },
    {
      "type": "Feature",
      "geometry": {
        "type": "Point",
        "coordinates": [
          -119.904356002808,
          49.3910328728792
        ]
      },
      "properties": {
        "id": "49",
        "name": "Apex Mountain Resort",
        "region_id": "331",
        "region": "British Columbia"
      }
    },
    {
      "type": "Feature",
      "geometry": {
        "type": "Point",
        "coordinates": [
          -123.20170631617,
          49.396419028281
        ]
      },
      "properties": {
        "id": "50",
        "name": "Cypress Mountain",
        "region_id": "331",
        "region": "British Columbia"
      }
    },
    {
      "type": "Feature",
      "geometry": {
        "type": "Point",
        "coordinates": [
          -118.586254119873,
          49.1090511842822
        ]
      },
      "properties": {
        "id": "51",
        "name": "Phoenix Mountain",
        "region_id": "331",
        "region": "British Columbia"
      }
    },
    {
      "type": "Feature",
      "geometry": {
        "type": "Point",
        "coordinates": [
          -119.711666107178,
          49.88202623627
        ]
      },
      "properties": {
        "id": "52",
        "name": "Crystal Mountain Resort",
        "region_id": "331",
        "region": "British Columbia"
      }
    },
    {
      "type": "Feature",
      "geometry": {
        "type": "Point",
        "coordinates": [
          -120.139789581299,
          50.7230902042327
        ]
      },
      "properties": {
        "id": "53",
        "name": "Harper Mountain",
        "region_id": "331",
        "region": "British Columbia"
      }
    },
    {
      "type": "Feature",
      "geometry": {
        "type": "Point",
        "coordinates": [
          -126.353073120117,
          50.2189847821671
        ]
      },
      "properties": {
        "id": "54",
        "name": "Mt. Cain",
        "region_id": "331",
        "region": "British Columbia"
      }
    },
    {
      "type": "Feature",
      "geometry": {
        "type": "Point",
        "coordinates": [
          -128.95357131958,
          54.4849984772733
        ]
      },
      "properties": {
        "id": "55",
        "name": "Shames Mountain",
        "region_id": "331",
        "region": "British Columbia"
      }
    },
    {
      "type": "Feature",
      "geometry": {
        "type": "Point",
        "coordinates": [
          -121.93450927734,
          49.379411246141
        ]
      },
      "properties": {
        "id": "56",
        "name": "Sasquatch Mountain (Hemlock Resort)",
        "region_id": "331",
        "region": "British Columbia"
      }
    },
    {
      "type": "Feature",
      "geometry": {
        "type": "Point",
        "coordinates": [
          -118.94174923584,
          49.732351673427
        ]
      },
      "properties": {
        "id": "57",
        "name": "Big White Ski Resort",
        "region_id": "331",
        "region": "British Columbia"
      }
    },
    {
      "type": "Feature",
      "geometry": {
        "type": "Point",
        "coordinates": [
          -123.08103561401,
          49.380025920244
        ]
      },
      "properties": {
        "id": "58",
        "name": "Grouse Mountain",
        "region_id": "331",
        "region": "British Columbia"
      }
    },
    {
      "type": "Feature",
      "geometry": {
        "type": "Point",
        "coordinates": [
          -117.15488533447,
          49.441209640663
        ]
      },
      "properties": {
        "id": "59",
        "name": "Whitewater Ski Resort",
        "region_id": "331",
        "region": "British Columbia"
      }
    },
    {
      "type": "Feature",
      "geometry": {
        "type": "Point",
        "coordinates": [
          -95.191471,
          49.704275
        ]
      },
      "properties": {
        "id": "60",
        "name": "Falcon Ridge",
        "region_id": "330",
        "region": "Manitoba"
      }
    },
    {
      "type": "Feature",
      "geometry": {
        "type": "Point",
        "coordinates": [
          -101.338217,
          50.951308
        ]
      },
      "properties": {
        "id": "61",
        "name": "Asessippi Winter Park",
        "region_id": "330",
        "region": "Manitoba"
      }
    },
    {
      "type": "Feature",
      "geometry": {
        "type": "Point",
        "coordinates": [
          -98.693941,
          49.236784
        ]
      },
      "properties": {
        "id": "62",
        "name": "Holiday Mountain",
        "region_id": "330",
        "region": "Manitoba"
      }
    },
    {
      "type": "Feature",
      "geometry": {
        "type": "Point",
        "coordinates": [
          -97.20651,
          50.094095
        ]
      },
      "properties": {
        "id": "63",
        "name": "Stony Mountain Ski Area",
        "region_id": "330",
        "region": "Manitoba"
      }
    },
    {
      "type": "Feature",
      "geometry": {
        "type": "Point",
        "coordinates": [
          -97.776935,
          55.868826
        ]
      },
      "properties": {
        "id": "64",
        "name": "Mystery Mountain",
        "region_id": "330",
        "region": "Manitoba"
      }
    },
    {
      "type": "Feature",
      "geometry": {
        "type": "Point",
        "coordinates": [
          -65.382583,
          45.679269
        ]
      },
      "properties": {
        "id": "65",
        "name": "Poley Mountain",
        "region_id": "329",
        "region": "New Brunswick"
      }
    },
    {
      "type": "Feature",
      "geometry": {
        "type": "Point",
        "coordinates": [
          -67.106976,
          46.120263
        ]
      },
      "properties": {
        "id": "66",
        "name": "Crabbe Mountain",
        "region_id": "329",
        "region": "New Brunswick"
      }
    },
    {
      "type": "Feature",
      "geometry": {
        "type": "Point",
        "coordinates": [
          -68.38185,
          47.413712
        ]
      },
      "properties": {
        "id": "67",
        "name": "Mont Farlagne",
        "region_id": "329",
        "region": "New Brunswick"
      }
    },
    {
      "type": "Feature",
      "geometry": {
        "type": "Point",
        "coordinates": [
          -66.694703,
          47.982235
        ]
      },
      "properties": {
        "id": "68",
        "name": "Sugarloaf Provincial Park",
        "region_id": "329",
        "region": "New Brunswick"
      }
    },
    {
      "type": "Feature",
      "geometry": {
        "type": "Point",
        "coordinates": [
          -64.165194444444,
          44.932527777778
        ]
      },
      "properties": {
        "id": "69",
        "name": "Ski Martock",
        "region_id": "328",
        "region": "Nova Scotia"
      }
    },
    {
      "type": "Feature",
      "geometry": {
        "type": "Point",
        "coordinates": [
          -60.4230880737305,
          46.6268063953552
        ]
      },
      "properties": {
        "id": "70",
        "name": "Cape Smokey",
        "region_id": "328",
        "region": "Nova Scotia"
      }
    },
    {
      "type": "Feature",
      "geometry": {
        "type": "Point",
        "coordinates": [
          -63.562141,
          45.608514
        ]
      },
      "properties": {
        "id": "71",
        "name": "Ski Wentworth",
        "region_id": "328",
        "region": "Nova Scotia"
      }
    },
    {
      "type": "Feature",
      "geometry": {
        "type": "Point",
        "coordinates": [
          -60.434941,
          45.974687
        ]
      },
      "properties": {
        "id": "72",
        "name": "Ski Ben Eoin",
        "region_id": "328",
        "region": "Nova Scotia"
      }
    },
    {
      "type": "Feature",
      "geometry": {
        "type": "Point",
        "coordinates": [
          -74.124605,
          45.914735
        ]
      },
      "properties": {
        "id": "73",
        "name": "Mont Olympia",
        "region_id": "327",
        "region": "Quebec"
      }
    },
    {
      "type": "Feature",
      "geometry": {
        "type": "Point",
        "coordinates": [
          -74.588629,
          46.163405
        ]
      },
      "properties": {
        "id": "74",
        "name": "Gray Rocks",
        "region_id": "327",
        "region": "Quebec"
      }
    },
    {
      "type": "Feature",
      "geometry": {
        "type": "Point",
        "coordinates": [
          -70.585196,
          46.409119
        ]
      },
      "properties": {
        "id": "75",
        "name": "Mont Orignal",
        "region_id": "327",
        "region": "Quebec"
      }
    },
    {
      "type": "Feature",
      "geometry": {
        "type": "Point",
        "coordinates": [
          -72.6091575622559,
          45.3786786363231
        ]
      },
      "properties": {
        "id": "76",
        "name": "Mont Shefford",
        "region_id": "327",
        "region": "Quebec"
      }
    },
    {
      "type": "Feature",
      "geometry": {
        "type": "Point",
        "coordinates": [
          -74.268427,
          45.89874
        ]
      },
      "properties": {
        "id": "77",
        "name": "Ski Morin Heights",
        "region_id": "327",
        "region": "Quebec"
      }
    },
    {
      "type": "Feature",
      "geometry": {
        "type": "Point",
        "coordinates": [
          -71.2975,
          46.936944444444
        ]
      },
      "properties": {
        "id": "78",
        "name": "Le Relais",
        "region_id": "327",
        "region": "Quebec"
      }
    },
    {
      "type": "Feature",
      "geometry": {
        "type": "Point",
        "coordinates": [
          -72.636284,
          45.299681
        ]
      },
      "properties": {
        "id": "79",
        "name": "Ski Bromont",
        "region_id": "327",
        "region": "Quebec"
      }
    },
    {
      "type": "Feature",
      "geometry": {
        "type": "Point",
        "coordinates": [
          -68.1672477722168,
          49.2893623841344
        ]
      },
      "properties": {
        "id": "81",
        "name": "Mont Ti-Basse",
        "region_id": "327",
        "region": "Quebec"
      }
    },
    {
      "type": "Feature",
      "geometry": {
        "type": "Point",
        "coordinates": [
          -72.295041,
          45.075142
        ]
      },
      "properties": {
        "id": "82",
        "name": "Owl's Head",
        "region_id": "327",
        "region": "Quebec"
      }
    },
    {
      "type": "Feature",
      "geometry": {
        "type": "Point",
        "coordinates": [
          -71.932362,
          45.302529
        ]
      },
      "properties": {
        "id": "83",
        "name": "Montjoye",
        "region_id": "327",
        "region": "Quebec"
      }
    },
    {
      "type": "Feature",
      "geometry": {
        "type": "Point",
        "coordinates": [
          -70.103759765625,
          47.7712912765771
        ]
      },
      "properties": {
        "id": "84",
        "name": "Mont Grand Fonds",
        "region_id": "327",
        "region": "Quebec"
      }
    },
    {
      "type": "Feature",
      "geometry": {
        "type": "Point",
        "coordinates": [
          -74.15351,
          45.884004
        ]
      },
      "properties": {
        "id": "85",
        "name": "Mont Saint-Sauveur",
        "region_id": "327",
        "region": "Quebec"
      }
    },
    {
      "type": "Feature",
      "geometry": {
        "type": "Point",
        "coordinates": [
          -70.92971450805663,
          47.086177956452
        ]
      },
      "properties": {
        "id": "87",
        "name": "Mont-Sainte-Anne",
        "region_id": "327",
        "region": "Quebec"
      }
    },
    {
      "type": "Feature",
      "geometry": {
        "type": "Point",
        "coordinates": [
          -75.849331,
          45.592882
        ]
      },
      "properties": {
        "id": "88",
        "name": "Mont Cascades",
        "region_id": "327",
        "region": "Quebec"
      }
    },
    {
      "type": "Feature",
      "geometry": {
        "type": "Point",
        "coordinates": [
          -68.19516,
          48.468094
        ]
      },
      "properties": {
        "id": "89",
        "name": "Parc du Mont-Comi",
        "region_id": "327",
        "region": "Quebec"
      }
    },
    {
      "type": "Feature",
      "geometry": {
        "type": "Point",
        "coordinates": [
          -72.561696,
          45.104657
        ]
      },
      "properties": {
        "id": "90",
        "name": "Mont Sutton",
        "region_id": "327",
        "region": "Quebec"
      }
    },
    {
      "type": "Feature",
      "geometry": {
        "type": "Point",
        "coordinates": [
          -72.220112,
          45.318594
        ]
      },
      "properties": {
        "id": "91",
        "name": "Mont Orford",
        "region_id": "327",
        "region": "Quebec"
      }
    },
    {
      "type": "Feature",
      "geometry": {
        "type": "Point",
        "coordinates": [
          -75.873412,
          45.942087
        ]
      },
      "properties": {
        "id": "92",
        "name": "Mont Ste-Marie",
        "region_id": "327",
        "region": "Quebec"
      }
    },
    {
      "type": "Feature",
      "geometry": {
        "type": "Point",
        "coordinates": [
          -77.7769374847412,
          48.4192328862364
        ]
      },
      "properties": {
        "id": "93",
        "name": "Mont Video",
        "region_id": "327",
        "region": "Quebec"
      }
    },
    {
      "type": "Feature",
      "geometry": {
        "type": "Point",
        "coordinates": [
          -73.871179,
          46.271412
        ]
      },
      "properties": {
        "id": "94",
        "name": "Val Saint-Come",
        "region_id": "327",
        "region": "Quebec"
      }
    },
    {
      "type": "Feature",
      "geometry": {
        "type": "Point",
        "coordinates": [
          -70.490704,
          46.621279
        ]
      },
      "properties": {
        "id": "95",
        "name": "Massif du Sud",
        "region_id": "327",
        "region": "Quebec"
      }
    },
    {
      "type": "Feature",
      "geometry": {
        "type": "Point",
        "coordinates": [
          -70.5938249136405,
          47.27852969019212
        ]
      },
      "properties": {
        "id": "96",
        "name": "Le Massif de Charlevoix",
        "region_id": "327",
        "region": "Quebec"
      }
    },
    {
      "type": "Feature",
      "geometry": {
        "type": "Point",
        "coordinates": [
          -74.23671679178904,
          46.03973803269116
        ]
      },
      "properties": {
        "id": "97",
        "name": "Mont Alta",
        "region_id": "327",
        "region": "Quebec"
      }
    },
    {
      "type": "Feature",
      "geometry": {
        "type": "Point",
        "coordinates": [
          -74.482543,
          46.108859
        ]
      },
      "properties": {
        "id": "98",
        "name": "Mont Blanc",
        "region_id": "327",
        "region": "Quebec"
      }
    },
    {
      "type": "Feature",
      "geometry": {
        "type": "Point",
        "coordinates": [
          -72.800412,
          46.61495
        ]
      },
      "properties": {
        "id": "99",
        "name": "La Vallee du Parc",
        "region_id": "327",
        "region": "Quebec"
      }
    },
    {
      "type": "Feature",
      "geometry": {
        "type": "Point",
        "coordinates": [
          -71.388333333333,
          47.03
        ]
      },
      "properties": {
        "id": "100",
        "name": "Stoneham Ski Resort",
        "region_id": "327",
        "region": "Quebec"
      }
    },
    {
      "type": "Feature",
      "geometry": {
        "type": "Point",
        "coordinates": [
          -74.556450416214,
          46.219128995733
        ]
      },
      "properties": {
        "id": "101",
        "name": "Mont Tremblant",
        "region_id": "327",
        "region": "Quebec"
      }
    },
    {
      "type": "Feature",
      "geometry": {
        "type": "Point",
        "coordinates": [
          -74.21839,
          46.025534
        ]
      },
      "properties": {
        "id": "102",
        "name": "Vallee Bleue",
        "region_id": "327",
        "region": "Quebec"
      }
    },
    {
      "type": "Feature",
      "geometry": {
        "type": "Point",
        "coordinates": [
          -67.570776,
          48.472095
        ]
      },
      "properties": {
        "id": "103",
        "name": "Val D'Irene",
        "region_id": "327",
        "region": "Quebec"
      }
    },
    {
      "type": "Feature",
      "geometry": {
        "type": "Point",
        "coordinates": [
          -74.176905,
          45.880801
        ]
      },
      "properties": {
        "id": "104",
        "name": "Mont Habitant",
        "region_id": "327",
        "region": "Quebec"
      }
    },
    {
      "type": "Feature",
      "geometry": {
        "type": "Point",
        "coordinates": [
          -74.2129039764404,
          45.999465865306
        ]
      },
      "properties": {
        "id": "105",
        "name": "Belle Neige",
        "region_id": "327",
        "region": "Quebec"
      }
    },
    {
      "type": "Feature",
      "geometry": {
        "type": "Point",
        "coordinates": [
          -74.154055,
          45.924022
        ]
      },
      "properties": {
        "id": "106",
        "name": "Mont Gabriel",
        "region_id": "327",
        "region": "Quebec"
      }
    },
    {
      "type": "Feature",
      "geometry": {
        "type": "Point",
        "coordinates": [
          -71.225815,
          48.435885
        ]
      },
      "properties": {
        "id": "107",
        "name": "Mont Fortin",
        "region_id": "327",
        "region": "Quebec"
      }
    },
    {
      "type": "Feature",
      "geometry": {
        "type": "Point",
        "coordinates": [
          -74.219402,
          46.336859
        ]
      },
      "properties": {
        "id": "108",
        "name": "Mont Garceau",
        "region_id": "327",
        "region": "Quebec"
      }
    },
    {
      "type": "Feature",
      "geometry": {
        "type": "Point",
        "coordinates": [
          -75.851,
          45.509
        ]
      },
      "properties": {
        "id": "109",
        "name": "Camp Fortune",
        "region_id": "327",
        "region": "Quebec"
      }
    },
    {
      "type": "Feature",
      "geometry": {
        "type": "Point",
        "coordinates": [
          -75.935552,
          45.645088
        ]
      },
      "properties": {
        "id": "110",
        "name": "Ski Vorlage",
        "region_id": "327",
        "region": "Quebec"
      }
    },
    {
      "type": "Feature",
      "geometry": {
        "type": "Point",
        "coordinates": [
          -76.782739,
          45.274399
        ]
      },
      "properties": {
        "id": "111",
        "name": "Calabogie Peaks",
        "region_id": "326",
        "region": "Ontario"
      }
    },
    {
      "type": "Feature",
      "geometry": {
        "type": "Point",
        "coordinates": [
          -79.9463939666748,
          43.5040676154253
        ]
      },
      "properties": {
        "id": "112",
        "name": "Glen Eden",
        "region_id": "326",
        "region": "Ontario"
      }
    },
    {
      "type": "Feature",
      "geometry": {
        "type": "Point",
        "coordinates": [
          -80.31160354614258,
          44.49711755234289
        ]
      },
      "properties": {
        "id": "113",
        "name": "Blue Mountain",
        "region_id": "326",
        "region": "Ontario"
      }
    },
    {
      "type": "Feature",
      "geometry": {
        "type": "Point",
        "coordinates": [
          -79.664486,
          44.563705
        ]
      },
      "properties": {
        "id": "114",
        "name": "Pine Ridge Ski Club",
        "region_id": "326",
        "region": "Ontario"
      }
    },
    {
      "type": "Feature",
      "geometry": {
        "type": "Point",
        "coordinates": [
          -80.54633,
          44.391189
        ]
      },
      "properties": {
        "id": "115",
        "name": "Talisman Mountain Resort",
        "region_id": "326",
        "region": "Ontario"
      }
    },
    {
      "type": "Feature",
      "geometry": {
        "type": "Point",
        "coordinates": [
          -79.725088,
          43.728368
        ]
      },
      "properties": {
        "id": "116",
        "name": "Mt. Chinguacousy Ski and Snowboard Hill",
        "region_id": "326",
        "region": "Ontario"
      }
    },
    {
      "type": "Feature",
      "geometry": {
        "type": "Point",
        "coordinates": [
          -79.061474,
          44.026957
        ]
      },
      "properties": {
        "id": "117",
        "name": "Ski Lakeridge",
        "region_id": "326",
        "region": "Ontario"
      }
    },
    {
      "type": "Feature",
      "geometry": {
        "type": "Point",
        "coordinates": [
          -76.338055555556,
          45.320555555556
        ]
      },
      "properties": {
        "id": "118",
        "name": "Mount Pakenham",
        "region_id": "326",
        "region": "Ontario"
      }
    },
    {
      "type": "Feature",
      "geometry": {
        "type": "Point",
        "coordinates": [
          -81.541444,
          48.533759
        ]
      },
      "properties": {
        "id": "119",
        "name": "Kamiskotia Ski Resort",
        "region_id": "326",
        "region": "Ontario"
      }
    },
    {
      "type": "Feature",
      "geometry": {
        "type": "Point",
        "coordinates": [
          -81.403762,
          46.626789
        ]
      },
      "properties": {
        "id": "120",
        "name": "Onaping Ski Hill",
        "region_id": "326",
        "region": "Ontario"
      }
    },
    {
      "type": "Feature",
      "geometry": {
        "type": "Point",
        "coordinates": [
          -78.57644,
          44.022416
        ]
      },
      "properties": {
        "id": "121",
        "name": "Brimacombe (Oshawa Ski Club)",
        "region_id": "326",
        "region": "Ontario"
      }
    },
    {
      "type": "Feature",
      "geometry": {
        "type": "Point",
        "coordinates": [
          -79.920158,
          44.734348
        ]
      },
      "properties": {
        "id": "122",
        "name": "Mountain View",
        "region_id": "326",
        "region": "Ontario"
      }
    },
    {
      "type": "Feature",
      "geometry": {
        "type": "Point",
        "coordinates": [
          -80.046278,
          43.97767
        ]
      },
      "properties": {
        "id": "123",
        "name": "Hockley Valley Resort",
        "region_id": "326",
        "region": "Ontario"
      }
    },
    {
      "type": "Feature",
      "geometry": {
        "type": "Point",
        "coordinates": [
          -79.432847,
          43.753089
        ]
      },
      "properties": {
        "id": "124",
        "name": "North York Ski Centre (Earl Bales)",
        "region_id": "326",
        "region": "Ontario"
      }
    },
    {
      "type": "Feature",
      "geometry": {
        "type": "Point",
        "coordinates": [
          -81.3376665115356,
          42.9447374222506
        ]
      },
      "properties": {
        "id": "125",
        "name": "Boler Mountain (London Ski Club)",
        "region_id": "326",
        "region": "Ontario"
      }
    },
    {
      "type": "Feature",
      "geometry": {
        "type": "Point",
        "coordinates": [
          -80.054707,
          44.201103
        ]
      },
      "properties": {
        "id": "126",
        "name": "Mansfield Ski Club",
        "region_id": "326",
        "region": "Ontario"
      }
    },
    {
      "type": "Feature",
      "geometry": {
        "type": "Point",
        "coordinates": [
          -82.6354265213013,
          46.3858989385776
        ]
      },
      "properties": {
        "id": "127",
        "name": "Mount Dufour",
        "region_id": "326",
        "region": "Ontario"
      }
    },
    {
      "type": "Feature",
      "geometry": {
        "type": "Point",
        "coordinates": [
          -84.3119144439697,
          46.6436028317519
        ]
      },
      "properties": {
        "id": "128",
        "name": "Heyden Ski Hill & Resort",
        "region_id": "326",
        "region": "Ontario"
      }
    },
    {
      "type": "Feature",
      "geometry": {
        "type": "Point",
        "coordinates": [
          -80.353228398219,
          44.521374263359
        ]
      },
      "properties": {
        "id": "129",
        "name": "Alpine Ski Club",
        "region_id": "326",
        "region": "Ontario"
      }
    },
    {
      "type": "Feature",
      "geometry": {
        "type": "Point",
        "coordinates": [
          -79.57011222839355,
          47.362315785482
        ]
      },
      "properties": {
        "id": "130",
        "name": "Tri-Town Ski Village",
        "region_id": "326",
        "region": "Ontario"
      }
    },
    {
      "type": "Feature",
      "geometry": {
        "type": "Point",
        "coordinates": [
          -79.671957,
          44.547528
        ]
      },
      "properties": {
        "id": "131",
        "name": "Horseshoe Resort",
        "region_id": "326",
        "region": "Ontario"
      }
    },
    {
      "type": "Feature",
      "geometry": {
        "type": "Point",
        "coordinates": [
          -79.666407,
          44.622961
        ]
      },
      "properties": {
        "id": "132",
        "name": "Mount St. Louis Moonstone",
        "region_id": "326",
        "region": "Ontario"
      }
    },
    {
      "type": "Feature",
      "geometry": {
        "type": "Point",
        "coordinates": [
          -77.346057,
          45.732144
        ]
      },
      "properties": {
        "id": "133",
        "name": "Alice Hill Park (Pembroke Ski Club)",
        "region_id": "326",
        "region": "Ontario"
      }
    },
    {
      "type": "Feature",
      "geometry": {
        "type": "Point",
        "coordinates": [
          -80.544766,
          44.358933
        ]
      },
      "properties": {
        "id": "134",
        "name": "Beaver Valley",
        "region_id": "326",
        "region": "Ontario"
      }
    },
    {
      "type": "Feature",
      "geometry": {
        "type": "Point",
        "coordinates": [
          -79.768128,
          44.422527
        ]
      },
      "properties": {
        "id": "135",
        "name": "Ski Snow Valley Barrie",
        "region_id": "326",
        "region": "Ontario"
      }
    },
    {
      "type": "Feature",
      "geometry": {
        "type": "Point",
        "coordinates": [
          -79.12968361434935,
          45.35612768267574
        ]
      },
      "properties": {
        "id": "136",
        "name": "Hidden Valley Highlands",
        "region_id": "326",
        "region": "Ontario"
      }
    },
    {
      "type": "Feature",
      "geometry": {
        "type": "Point",
        "coordinates": [
          -89.12828765869142,
          48.52559874791694
        ]
      },
      "properties": {
        "id": "137",
        "name": "Mount Baldy",
        "region_id": "326",
        "region": "Ontario"
      }
    },
    {
      "type": "Feature",
      "geometry": {
        "type": "Point",
        "coordinates": [
          -89.346744,
          48.294056
        ]
      },
      "properties": {
        "id": "138",
        "name": "Loch Lomond Ski Area",
        "region_id": "326",
        "region": "Ontario"
      }
    },
    {
      "type": "Feature",
      "geometry": {
        "type": "Point",
        "coordinates": [
          -79.057608,
          44.01243
        ]
      },
      "properties": {
        "id": "139",
        "name": "Ski Dagmar",
        "region_id": "326",
        "region": "Ontario"
      }
    },
    {
      "type": "Feature",
      "geometry": {
        "type": "Point",
        "coordinates": [
          -84.045481,
          46.769225
        ]
      },
      "properties": {
        "id": "140",
        "name": "Searchmont Resort",
        "region_id": "326",
        "region": "Ontario"
      }
    },
    {
      "type": "Feature",
      "geometry": {
        "type": "Point",
        "coordinates": [
          -81.0647249221802,
          43.1089413631271
        ]
      },
      "properties": {
        "id": "141",
        "name": "Cobble Hills Golf & Ski Club",
        "region_id": "326",
        "region": "Ontario"
      }
    },
    {
      "type": "Feature",
      "geometry": {
        "type": "Point",
        "coordinates": [
          -77.66218185424799,
          45.43676738098741
        ]
      },
      "properties": {
        "id": "142",
        "name": "Madawaska Valley (Radcliffe Hills)",
        "region_id": "326",
        "region": "Ontario"
      }
    },
    {
      "type": "Feature",
      "geometry": {
        "type": "Point",
        "coordinates": [
          -78.575667,
          44.21996
        ]
      },
      "properties": {
        "id": "143",
        "name": "Devil's Elbow",
        "region_id": "326",
        "region": "Ontario"
      }
    },
    {
      "type": "Feature",
      "geometry": {
        "type": "Point",
        "coordinates": [
          -80.4184198379517,
          43.4352831845572
        ]
      },
      "properties": {
        "id": "145",
        "name": "Chicopee Ski Club",
        "region_id": "326",
        "region": "Ontario"
      }
    },
    {
      "type": "Feature",
      "geometry": {
        "type": "Point",
        "coordinates": [
          -79.075621,
          44.030016
        ]
      },
      "properties": {
        "id": "146",
        "name": "Skyloft Ski & Country Club",
        "region_id": "326",
        "region": "Ontario"
      }
    },
    {
      "type": "Feature",
      "geometry": {
        "type": "Point",
        "coordinates": [
          -78.483072,
          45.129858
        ]
      },
      "properties": {
        "id": "147",
        "name": "Sir Sam's Ski Area",
        "region_id": "326",
        "region": "Ontario"
      }
    },
    {
      "type": "Feature",
      "geometry": {
        "type": "Point",
        "coordinates": [
          -109.758224487305,
          42.9773998438591
        ]
      },
      "properties": {
        "id": "148",
        "name": "White Pine Ski Area",
        "region_id": "325",
        "region": "Wyoming"
      }
    },
    {
      "type": "Feature",
      "geometry": {
        "type": "Point",
        "coordinates": [
          -107.217292785645,
          44.1634893281213
        ]
      },
      "properties": {
        "id": "149",
        "name": "Big Horn Ski Resort",
        "region_id": "325",
        "region": "Wyoming"
      }
    },
    {
      "type": "Feature",
      "geometry": {
        "type": "Point",
        "coordinates": [
          -110.94663929382,
          43.783809324708
        ]
      },
      "properties": {
        "id": "150",
        "name": "Grand Targhee Ski Resort",
        "region_id": "325",
        "region": "Wyoming"
      }
    },
    {
      "type": "Feature",
      "geometry": {
        "type": "Point",
        "coordinates": [
          -110.84408772671,
          43.594884839631
        ]
      },
      "properties": {
        "id": "151",
        "name": "Jackson Hole Mountain Resort",
        "region_id": "325",
        "region": "Wyoming"
      }
    },
    {
      "type": "Feature",
      "geometry": {
        "type": "Point",
        "coordinates": [
          -106.33942777778,
          42.744961111111
        ]
      },
      "properties": {
        "id": "152",
        "name": "Hogadon Ski Area",
        "region_id": "325",
        "region": "Wyoming"
      }
    },
    {
      "type": "Feature",
      "geometry": {
        "type": "Point",
        "coordinates": [
          -107.5147819519043,
          44.6114593839695
        ]
      },
      "properties": {
        "id": "153",
        "name": "Antelope Butte Ski Area",
        "region_id": "325",
        "region": "Wyoming"
      }
    },
    {
      "type": "Feature",
      "geometry": {
        "type": "Point",
        "coordinates": [
          -109.941751,
          44.492005
        ]
      },
      "properties": {
        "id": "154",
        "name": "Sleeping Giant Ski Area",
        "region_id": "325",
        "region": "Wyoming"
      }
    },
    {
      "type": "Feature",
      "geometry": {
        "type": "Point",
        "coordinates": [
          -106.18317224290195,
          41.34126991586003
        ]
      },
      "properties": {
        "id": "155",
        "name": "Snowy Range",
        "region_id": "325",
        "region": "Wyoming"
      }
    },
    {
      "type": "Feature",
      "geometry": {
        "type": "Point",
        "coordinates": [
          -110.75083333333,
          43.469166666667
        ]
      },
      "properties": {
        "id": "156",
        "name": "Snow King Ski Area",
        "region_id": "325",
        "region": "Wyoming"
      }
    },
    {
      "type": "Feature",
      "geometry": {
        "type": "Point",
        "coordinates": [
          -89.18100357055664,
          44.12169857972283
        ]
      },
      "properties": {
        "id": "157",
        "name": "Nordic Mountain",
        "region_id": "324",
        "region": "Wisconsin"
      }
    },
    {
      "type": "Feature",
      "geometry": {
        "type": "Point",
        "coordinates": [
          -90.39559364318848,
          46.407859877068454
        ]
      },
      "properties": {
        "id": "158",
        "name": "Whitecap Mountains",
        "region_id": "324",
        "region": "Wisconsin"
      }
    },
    {
      "type": "Feature",
      "geometry": {
        "type": "Point",
        "coordinates": [
          -92.621955871582,
          45.3496118624493
        ]
      },
      "properties": {
        "id": "159",
        "name": "Trollhaugen Ski Area",
        "region_id": "324",
        "region": "Wisconsin"
      }
    },
    {
      "type": "Feature",
      "geometry": {
        "type": "Point",
        "coordinates": [
          -89.39851999282837,
          44.433550014618156
        ]
      },
      "properties": {
        "id": "160",
        "name": "Standing Rocks",
        "region_id": "324",
        "region": "Wisconsin"
      }
    },
    {
      "type": "Feature",
      "geometry": {
        "type": "Point",
        "coordinates": [
          -88.2807,
          43.3383
        ]
      },
      "properties": {
        "id": "161",
        "name": "Little Switzerland",
        "region_id": "324",
        "region": "Wisconsin"
      }
    },
    {
      "type": "Feature",
      "geometry": {
        "type": "Point",
        "coordinates": [
          -89.777719444444,
          43.042747222222
        ]
      },
      "properties": {
        "id": "162",
        "name": "Tyrol Basin",
        "region_id": "324",
        "region": "Wisconsin"
      }
    },
    {
      "type": "Feature",
      "geometry": {
        "type": "Point",
        "coordinates": [
          -88.3879280090332,
          42.6107800920452
        ]
      },
      "properties": {
        "id": "163",
        "name": "The Mountain Top at Grand Geneva Resort",
        "region_id": "324",
        "region": "Wisconsin"
      }
    },
    {
      "type": "Feature",
      "geometry": {
        "type": "Point",
        "coordinates": [
          -90.785354,
          44.445163
        ]
      },
      "properties": {
        "id": "164",
        "name": "Bruce Mound Ski Area",
        "region_id": "324",
        "region": "Wisconsin"
      }
    },
    {
      "type": "Feature",
      "geometry": {
        "type": "Point",
        "coordinates": [
          -88.188888888889,
          42.5
        ]
      },
      "properties": {
        "id": "165",
        "name": "Wilmot Mountain",
        "region_id": "324",
        "region": "Wisconsin"
      }
    },
    {
      "type": "Feature",
      "geometry": {
        "type": "Point",
        "coordinates": [
          -89.8594093322754,
          43.6087366288434
        ]
      },
      "properties": {
        "id": "166",
        "name": "Christmas Mountain Village",
        "region_id": "324",
        "region": "Wisconsin"
      }
    },
    {
      "type": "Feature",
      "geometry": {
        "type": "Point",
        "coordinates": [
          -88.47991107974855,
          43.08814819066048
        ]
      },
      "properties": {
        "id": "167",
        "name": "Highlands of Olympia",
        "region_id": "324",
        "region": "Wisconsin"
      }
    },
    {
      "type": "Feature",
      "geometry": {
        "type": "Point",
        "coordinates": [
          -90.912407,
          46.781046
        ]
      },
      "properties": {
        "id": "168",
        "name": "Mount Ashwabay",
        "region_id": "324",
        "region": "Wisconsin"
      }
    },
    {
      "type": "Feature",
      "geometry": {
        "type": "Point",
        "coordinates": [
          -88.4282684326172,
          42.7330178351857
        ]
      },
      "properties": {
        "id": "169",
        "name": "Alpine Valley Resort",
        "region_id": "324",
        "region": "Wisconsin"
      }
    },
    {
      "type": "Feature",
      "geometry": {
        "type": "Point",
        "coordinates": [
          -89.6825,
          44.928611111111
        ]
      },
      "properties": {
        "id": "170",
        "name": "Granite Peak",
        "region_id": "324",
        "region": "Wisconsin"
      }
    },
    {
      "type": "Feature",
      "geometry": {
        "type": "Point",
        "coordinates": [
          -91.182746887207,
          43.7410263804292
        ]
      },
      "properties": {
        "id": "171",
        "name": "Mt. LaCrosse",
        "region_id": "324",
        "region": "Wisconsin"
      }
    },
    {
      "type": "Feature",
      "geometry": {
        "type": "Point",
        "coordinates": [
          -91.24802112579346,
          46.187882437823376
        ]
      },
      "properties": {
        "id": "172",
        "name": "Telemark Resort",
        "region_id": "324",
        "region": "Wisconsin"
      }
    },
    {
      "type": "Feature",
      "geometry": {
        "type": "Point",
        "coordinates": [
          -88.2241630554199,
          43.4938102020712
        ]
      },
      "properties": {
        "id": "173",
        "name": "Sunburst Ski Area",
        "region_id": "324",
        "region": "Wisconsin"
      }
    },
    {
      "type": "Feature",
      "geometry": {
        "type": "Point",
        "coordinates": [
          -88.01628112792969,
          42.920417789135996
        ]
      },
      "properties": {
        "id": "174",
        "name": "Rock Snowpark (Crystal Ridge)",
        "region_id": "324",
        "region": "Wisconsin"
      }
    },
    {
      "type": "Feature",
      "geometry": {
        "type": "Point",
        "coordinates": [
          -89.5147132873535,
          43.4990091695623
        ]
      },
      "properties": {
        "id": "175",
        "name": "Cascade Mountain",
        "region_id": "324",
        "region": "Wisconsin"
      }
    },
    {
      "type": "Feature",
      "geometry": {
        "type": "Point",
        "coordinates": [
          -92.28433000000001,
          46.652021
        ]
      },
      "properties": {
        "id": "176",
        "name": "Mont du Lac Ski Area",
        "region_id": "324",
        "region": "Wisconsin"
      }
    },
    {
      "type": "Feature",
      "geometry": {
        "type": "Point",
        "coordinates": [
          -88.29909324645996,
          45.89535475861722
        ]
      },
      "properties": {
        "id": "177",
        "name": "Keyes Peak Ski Area",
        "region_id": "324",
        "region": "Wisconsin"
      }
    },
    {
      "type": "Feature",
      "geometry": {
        "type": "Point",
        "coordinates": [
          -91.3834190368652,
          45.5075499430853
        ]
      },
      "properties": {
        "id": "178",
        "name": "Christie Mountain Ski Area",
        "region_id": "324",
        "region": "Wisconsin"
      }
    },
    {
      "type": "Feature",
      "geometry": {
        "type": "Point",
        "coordinates": [
          -89.6273231506348,
          43.4220062741493
        ]
      },
      "properties": {
        "id": "179",
        "name": "Devil's Head Resort",
        "region_id": "324",
        "region": "Wisconsin"
      }
    },
    {
      "type": "Feature",
      "geometry": {
        "type": "Point",
        "coordinates": [
          -79.43682256062789,
          39.007472538140306
        ]
      },
      "properties": {
        "id": "180",
        "name": "Canaan Valley Resort",
        "region_id": "323",
        "region": "West Virginia"
      }
    },
    {
      "type": "Feature",
      "geometry": {
        "type": "Point",
        "coordinates": [
          -79.994555875147,
          38.424160087161
        ]
      },
      "properties": {
        "id": "181",
        "name": "Snowshoe Mountain",
        "region_id": "323",
        "region": "West Virginia"
      }
    },
    {
      "type": "Feature",
      "geometry": {
        "type": "Point",
        "coordinates": [
          -81.115,
          37.59
        ]
      },
      "properties": {
        "id": "182",
        "name": "Winterplace Ski Resort",
        "region_id": "323",
        "region": "West Virginia"
      }
    },
    {
      "type": "Feature",
      "geometry": {
        "type": "Point",
        "coordinates": [
          -79.3971633911133,
          39.0375863227058
        ]
      },
      "properties": {
        "id": "183",
        "name": "Timberline Ski Resort",
        "region_id": "323",
        "region": "West Virginia"
      }
    },
    {
      "type": "Feature",
      "geometry": {
        "type": "Point",
        "coordinates": [
          -121.39445967311,
          46.623289874443
        ]
      },
      "properties": {
        "id": "184",
        "name": "White Pass Ski Area",
        "region_id": "322",
        "region": "Washington"
      }
    },
    {
      "type": "Feature",
      "geometry": {
        "type": "Point",
        "coordinates": [
          -117.85171508789,
          46.075850501194
        ]
      },
      "properties": {
        "id": "185",
        "name": "Bluewood",
        "region_id": "322",
        "region": "Washington"
      }
    },
    {
      "type": "Feature",
      "geometry": {
        "type": "Point",
        "coordinates": [
          -120.4122539254,
          47.28152431316
        ]
      },
      "properties": {
        "id": "186",
        "name": "Mission Ridge Ski Area",
        "region_id": "322",
        "region": "Washington"
      }
    },
    {
      "type": "Feature",
      "geometry": {
        "type": "Point",
        "coordinates": [
          -120.12961864471,
          47.611284201429
        ]
      },
      "properties": {
        "id": "187",
        "name": "Badger Mountain Ski Area",
        "region_id": "322",
        "region": "Washington"
      }
    },
    {
      "type": "Feature",
      "geometry": {
        "type": "Point",
        "coordinates": [
          -119.163980484009,
          48.8639807401329
        ]
      },
      "properties": {
        "id": "188",
        "name": "Sitzmark Ski Hill",
        "region_id": "322",
        "region": "Washington"
      }
    },
    {
      "type": "Feature",
      "geometry": {
        "type": "Point",
        "coordinates": [
          -117.102928161621,
          47.9233596156413
        ]
      },
      "properties": {
        "id": "189",
        "name": "Mt. Spokane Ski Area",
        "region_id": "322",
        "region": "Washington"
      }
    },
    {
      "type": "Feature",
      "geometry": {
        "type": "Point",
        "coordinates": [
          -121.09042995777,
          47.737572652027
        ]
      },
      "properties": {
        "id": "190",
        "name": "Stevens Pass Ski Area",
        "region_id": "322",
        "region": "Washington"
      }
    },
    {
      "type": "Feature",
      "geometry": {
        "type": "Point",
        "coordinates": [
          -121.66574080868,
          48.857260936884
        ]
      },
      "properties": {
        "id": "191",
        "name": "Mt. Baker Ski Area",
        "region_id": "322",
        "region": "Washington"
      }
    },
    {
      "type": "Feature",
      "geometry": {
        "type": "Point",
        "coordinates": [
          -119.91010665894,
          48.393307797187
        ]
      },
      "properties": {
        "id": "192",
        "name": "Loup Loup Ski Bowl",
        "region_id": "322",
        "region": "Washington"
      }
    },
    {
      "type": "Feature",
      "geometry": {
        "type": "Point",
        "coordinates": [
          -121.47428512573,
          46.936315801205
        ]
      },
      "properties": {
        "id": "193",
        "name": "Crystal Mountain Resort",
        "region_id": "322",
        "region": "Washington"
      }
    },
    {
      "type": "Feature",
      "geometry": {
        "type": "Point",
        "coordinates": [
          -121.41843515102,
          47.412334866807
        ]
      },
      "properties": {
        "id": "194",
        "name": "The Summit at Snoqualmie / Alpental",
        "region_id": "322",
        "region": "Washington"
      }
    },
    {
      "type": "Feature",
      "geometry": {
        "type": "Point",
        "coordinates": [
          -117.56557351874,
          48.292973160081
        ]
      },
      "properties": {
        "id": "195",
        "name": "49 Degrees North Mountain Resort",
        "region_id": "322",
        "region": "Washington"
      }
    },
    {
      "type": "Feature",
      "geometry": {
        "type": "Point",
        "coordinates": [
          -78.7668657302856,
          38.813897358089
        ]
      },
      "properties": {
        "id": "196",
        "name": "Bryce Resort",
        "region_id": "321",
        "region": "Virginia"
      }
    },
    {
      "type": "Feature",
      "geometry": {
        "type": "Point",
        "coordinates": [
          -78.7578964233398,
          38.3992585068922
        ]
      },
      "properties": {
        "id": "197",
        "name": "Massanutten Resort",
        "region_id": "321",
        "region": "Virginia"
      }
    },
    {
      "type": "Feature",
      "geometry": {
        "type": "Point",
        "coordinates": [
          -79.8213386535645,
          37.9945393246973
        ]
      },
      "properties": {
        "id": "198",
        "name": "The Homestead Ski Area",
        "region_id": "321",
        "region": "Virginia"
      }
    },
    {
      "type": "Feature",
      "geometry": {
        "type": "Point",
        "coordinates": [
          -78.9451789855957,
          37.919690743995
        ]
      },
      "properties": {
        "id": "199",
        "name": "Wintergreen Ski Resort",
        "region_id": "321",
        "region": "Virginia"
      }
    },
    {
      "type": "Feature",
      "geometry": {
        "type": "Point",
        "coordinates": [
          -72.925491252539,
          44.199752742045
        ]
      },
      "properties": {
        "id": "200",
        "name": "Mad River Glen",
        "region_id": "320",
        "region": "Vermont"
      }
    },
    {
      "type": "Feature",
      "geometry": {
        "type": "Point",
        "coordinates": [
          -72.7667427062988,
          43.1984186853483
        ]
      },
      "properties": {
        "id": "201",
        "name": "Magic Mountain",
        "region_id": "320",
        "region": "Vermont"
      }
    },
    {
      "type": "Feature",
      "geometry": {
        "type": "Point",
        "coordinates": [
          -72.514071065652,
          44.928547155091
        ]
      },
      "properties": {
        "id": "202",
        "name": "Jay Peak",
        "region_id": "320",
        "region": "Vermont"
      }
    },
    {
      "type": "Feature",
      "geometry": {
        "type": "Point",
        "coordinates": [
          -72.544444444444,
          43.663888888889
        ]
      },
      "properties": {
        "id": "203",
        "name": "Suicide Six",
        "region_id": "320",
        "region": "Vermont"
      }
    },
    {
      "type": "Feature",
      "geometry": {
        "type": "Point",
        "coordinates": [
          -72.733165400523,
          43.410228868997
        ]
      },
      "properties": {
        "id": "204",
        "name": "Okemo Mountain Resort",
        "region_id": "320",
        "region": "Vermont"
      }
    },
    {
      "type": "Feature",
      "geometry": {
        "type": "Point",
        "coordinates": [
          -72.910809861836,
          44.148588670556
        ]
      },
      "properties": {
        "id": "205",
        "name": "Sugarbush Resort",
        "region_id": "320",
        "region": "Vermont"
      }
    },
    {
      "type": "Feature",
      "geometry": {
        "type": "Point",
        "coordinates": [
          -72.4632453918457,
          43.4608937800826
        ]
      },
      "properties": {
        "id": "206",
        "name": "Ascutney Mountain",
        "region_id": "320",
        "region": "Vermont"
      }
    },
    {
      "type": "Feature",
      "geometry": {
        "type": "Point",
        "coordinates": [
          -72.9820489883423,
          44.396811336039
        ]
      },
      "properties": {
        "id": "207",
        "name": "Cochran's Ski Area",
        "region_id": "320",
        "region": "Vermont"
      }
    },
    {
      "type": "Feature",
      "geometry": {
        "type": "Point",
        "coordinates": [
          -71.885833333333,
          44.568055555556
        ]
      },
      "properties": {
        "id": "208",
        "name": "Burke Mountain",
        "region_id": "320",
        "region": "Vermont"
      }
    },
    {
      "type": "Feature",
      "geometry": {
        "type": "Point",
        "coordinates": [
          -72.771087504604,
          44.570220368324
        ]
      },
      "properties": {
        "id": "209",
        "name": "Smugglers' Notch Resort",
        "region_id": "320",
        "region": "Vermont"
      }
    },
    {
      "type": "Feature",
      "geometry": {
        "type": "Point",
        "coordinates": [
          -72.907748315688,
          42.961588905999
        ]
      },
      "properties": {
        "id": "210",
        "name": "Mount Snow",
        "region_id": "320",
        "region": "Vermont"
      }
    },
    {
      "type": "Feature",
      "geometry": {
        "type": "Point",
        "coordinates": [
          -72.806830769519,
          43.620054320571
        ]
      },
      "properties": {
        "id": "211",
        "name": "Killington",
        "region_id": "320",
        "region": "Vermont"
      }
    },
    {
      "type": "Feature",
      "geometry": {
        "type": "Point",
        "coordinates": [
          -72.790327702853,
          44.529778358652
        ]
      },
      "properties": {
        "id": "212",
        "name": "Stowe Mountain Resort",
        "region_id": "320",
        "region": "Vermont"
      }
    },
    {
      "type": "Feature",
      "geometry": {
        "type": "Point",
        "coordinates": [
          -72.909626272697,
          43.102252692073
        ]
      },
      "properties": {
        "id": "213",
        "name": "Stratton Mountain Resort",
        "region_id": "320",
        "region": "Vermont"
      }
    },
    {
      "type": "Feature",
      "geometry": {
        "type": "Point",
        "coordinates": [
          -72.96,
          43.94
        ]
      },
      "properties": {
        "id": "214",
        "name": "Middlebury College Snow Bowl",
        "region_id": "320",
        "region": "Vermont"
      }
    },
    {
      "type": "Feature",
      "geometry": {
        "type": "Point",
        "coordinates": [
          -72.44453430175776,
          43.65644669723089
        ]
      },
      "properties": {
        "id": "215",
        "name": "Quechee Lakes",
        "region_id": "320",
        "region": "Vermont"
      }
    },
    {
      "type": "Feature",
      "geometry": {
        "type": "Point",
        "coordinates": [
          -72.869722222222,
          44.415833333333
        ]
      },
      "properties": {
        "id": "216",
        "name": "Bolton Valley Resort",
        "region_id": "320",
        "region": "Vermont"
      }
    },
    {
      "type": "Feature",
      "geometry": {
        "type": "Point",
        "coordinates": [
          -72.938611111111,
          43.227777777778
        ]
      },
      "properties": {
        "id": "217",
        "name": "Bromley Mountain",
        "region_id": "320",
        "region": "Vermont"
      }
    },
    {
      "type": "Feature",
      "geometry": {
        "type": "Point",
        "coordinates": [
          -111.86125784888,
          41.201505936011
        ]
      },
      "properties": {
        "id": "219",
        "name": "Snowbasin",
        "region_id": "319",
        "region": "Utah"
      }
    },
    {
      "type": "Feature",
      "geometry": {
        "type": "Point",
        "coordinates": [
          -111.54166666667,
          41.968333333333
        ]
      },
      "properties": {
        "id": "220",
        "name": "Beaver Mountain Ski Area",
        "region_id": "319",
        "region": "Utah"
      }
    },
    {
      "type": "Feature",
      "geometry": {
        "type": "Point",
        "coordinates": [
          -111.8648485,
          41.3103554
        ]
      },
      "properties": {
        "id": "221",
        "name": "Nordic Valley Resort",
        "region_id": "319",
        "region": "Utah"
      }
    },
    {
      "type": "Feature",
      "geometry": {
        "type": "Point",
        "coordinates": [
          -111.57823291875,
          40.59312888125
        ]
      },
      "properties": {
        "id": "222",
        "name": "Brighton Ski Resort",
        "region_id": "319",
        "region": "Utah"
      }
    },
    {
      "type": "Feature",
      "geometry": {
        "type": "Point",
        "coordinates": [
          -111.48925008823,
          40.620991937564
        ]
      },
      "properties": {
        "id": "223",
        "name": "Deer Valley Resort",
        "region_id": "319",
        "region": "Utah"
      }
    },
    {
      "type": "Feature",
      "geometry": {
        "type": "Point",
        "coordinates": [
          -111.61208152771,
          40.5792808973648
        ]
      },
      "properties": {
        "id": "224",
        "name": "Alta Ski Area",
        "region_id": "319",
        "region": "Utah"
      }
    },
    {
      "type": "Feature",
      "geometry": {
        "type": "Point",
        "coordinates": [
          -111.60162030121,
          40.614750344234
        ]
      },
      "properties": {
        "id": "225",
        "name": "Solitude Mountain Resort",
        "region_id": "319",
        "region": "Utah"
      }
    },
    {
      "type": "Feature",
      "geometry": {
        "type": "Point",
        "coordinates": [
          -111.65372773362,
          40.569326526521
        ]
      },
      "properties": {
        "id": "226",
        "name": "Snowbird Ski and Summer Resort",
        "region_id": "319",
        "region": "Utah"
      }
    },
    {
      "type": "Feature",
      "geometry": {
        "type": "Point",
        "coordinates": [
          -112.84595695893,
          37.690528913503
        ]
      },
      "properties": {
        "id": "227",
        "name": "Brian Head Resort",
        "region_id": "319",
        "region": "Utah"
      }
    },
    {
      "type": "Feature",
      "geometry": {
        "type": "Point",
        "coordinates": [
          -111.76797883721,
          41.37995874677
        ]
      },
      "properties": {
        "id": "228",
        "name": "Powder Mountain",
        "region_id": "319",
        "region": "Utah"
      }
    },
    {
      "type": "Feature",
      "geometry": {
        "type": "Point",
        "coordinates": [
          -111.52393512664,
          40.633565571877
        ]
      },
      "properties": {
        "id": "229",
        "name": "Park City Mountain Resort (The Canyons)",
        "region_id": "319",
        "region": "Utah"
      }
    },
    {
      "type": "Feature",
      "geometry": {
        "type": "Point",
        "coordinates": [
          -111.58739950947,
          40.380272366609
        ]
      },
      "properties": {
        "id": "230",
        "name": "Sundance",
        "region_id": "319",
        "region": "Utah"
      }
    },
    {
      "type": "Feature",
      "geometry": {
        "type": "Point",
        "coordinates": [
          -112.38739013671875,
          38.31741722616916
        ]
      },
      "properties": {
        "id": "231",
        "name": "Eagle Point",
        "region_id": "319",
        "region": "Utah"
      }
    },
    {
      "type": "Feature",
      "geometry": {
        "type": "Point",
        "coordinates": [
          -83.5592222213745,
          35.7014288312721
        ]
      },
      "properties": {
        "id": "232",
        "name": "Ober Gatlinburg Ski Resort",
        "region_id": "317",
        "region": "Tennessee"
      }
    },
    {
      "type": "Feature",
      "geometry": {
        "type": "Point",
        "coordinates": [
          -103.834190368652,
          44.3307862513214
        ]
      },
      "properties": {
        "id": "233",
        "name": "Terry Peak Ski Area",
        "region_id": "316",
        "region": "South Dakota"
      }
    },
    {
      "type": "Feature",
      "geometry": {
        "type": "Point",
        "coordinates": [
          -96.664966666667,
          43.5821
        ]
      },
      "properties": {
        "id": "234",
        "name": "Great Bear Recreation Park",
        "region_id": "316",
        "region": "South Dakota"
      }
    },
    {
      "type": "Feature",
      "geometry": {
        "type": "Point",
        "coordinates": [
          -103.81844166667,
          44.308433333333
        ]
      },
      "properties": {
        "id": "235",
        "name": "Ski Mystic Deer Mountain",
        "region_id": "316",
        "region": "South Dakota"
      }
    },
    {
      "type": "Feature",
      "geometry": {
        "type": "Point",
        "coordinates": [
          -71.52685222201887,
          41.51692092898834
        ]
      },
      "properties": {
        "id": "236",
        "name": "Yawgoo Valley Ski Area",
        "region_id": "314",
        "region": "Rhode Island"
      }
    },
    {
      "type": "Feature",
      "geometry": {
        "type": "Point",
        "coordinates": [
          -75.02400398254395,
          41.523294569557024
        ]
      },
      "properties": {
        "id": "237",
        "name": "Ski Big Bear",
        "region_id": "313",
        "region": "Pennsylvania"
      }
    },
    {
      "type": "Feature",
      "geometry": {
        "type": "Point",
        "coordinates": [
          -75.306111111111,
          41.04
        ]
      },
      "properties": {
        "id": "238",
        "name": "Camelback Ski Area",
        "region_id": "313",
        "region": "Pennsylvania"
      }
    },
    {
      "type": "Feature",
      "geometry": {
        "type": "Point",
        "coordinates": [
          -75.181503295898,
          41.405140820471
        ]
      },
      "properties": {
        "id": "239",
        "name": "Tanglwood Ski Area",
        "region_id": "313",
        "region": "Pennsylvania"
      }
    },
    {
      "type": "Feature",
      "geometry": {
        "type": "Point",
        "coordinates": [
          -79.302938122739,
          40.024278864987
        ]
      },
      "properties": {
        "id": "240",
        "name": "Seven Springs Mountain Resort",
        "region_id": "313",
        "region": "Pennsylvania"
      }
    },
    {
      "type": "Feature",
      "geometry": {
        "type": "Point",
        "coordinates": [
          -78.5604858398438,
          40.2932751085126
        ]
      },
      "properties": {
        "id": "241",
        "name": "Blue Knob",
        "region_id": "313",
        "region": "Pennsylvania"
      }
    },
    {
      "type": "Feature",
      "geometry": {
        "type": "Point",
        "coordinates": [
          -76.92626953125,
          40.1068309507929
        ]
      },
      "properties": {
        "id": "242",
        "name": "Ski Roundtop",
        "region_id": "313",
        "region": "Pennsylvania"
      }
    },
    {
      "type": "Feature",
      "geometry": {
        "type": "Point",
        "coordinates": [
          -77.3679542541504,
          39.7584078513983
        ]
      },
      "properties": {
        "id": "243",
        "name": "Liberty Mountain",
        "region_id": "313",
        "region": "Pennsylvania"
      }
    },
    {
      "type": "Feature",
      "geometry": {
        "type": "Point",
        "coordinates": [
          -77.8321266174316,
          41.7733600744208
        ]
      },
      "properties": {
        "id": "244",
        "name": "Ski Denton",
        "region_id": "313",
        "region": "Pennsylvania"
      }
    },
    {
      "type": "Feature",
      "geometry": {
        "type": "Point",
        "coordinates": [
          -80.07089138031006,
          41.851182561454245
        ]
      },
      "properties": {
        "id": "245",
        "name": "Mt. Pleasant",
        "region_id": "313",
        "region": "Pennsylvania"
      }
    },
    {
      "type": "Feature",
      "geometry": {
        "type": "Point",
        "coordinates": [
          -75.0781631469727,
          41.0349525173677
        ]
      },
      "properties": {
        "id": "246",
        "name": "Shawnee Mountain",
        "region_id": "313",
        "region": "Pennsylvania"
      }
    },
    {
      "type": "Feature",
      "geometry": {
        "type": "Point",
        "coordinates": [
          -75.6595802307129,
          41.3522010044002
        ]
      },
      "properties": {
        "id": "248",
        "name": "Montage Mountain",
        "region_id": "313",
        "region": "Pennsylvania"
      }
    },
    {
      "type": "Feature",
      "geometry": {
        "type": "Point",
        "coordinates": [
          -89.8952865600586,
          45.83047382900784
        ]
      },
      "properties": {
        "id": "12245",
        "name": "Minocqua Winter Park",
        "region_id": "324",
        "region": "Wisconsin"
      }
    },
    {
      "type": "Feature",
      "geometry": {
        "type": "Point",
        "coordinates": [
          -76.1036682128906,
          40.922722362463
        ]
      },
      "properties": {
        "id": "250",
        "name": "Eagle Rock Ski Area",
        "region_id": "313",
        "region": "Pennsylvania"
      }
    },
    {
      "type": "Feature",
      "geometry": {
        "type": "Point",
        "coordinates": [
          -75.558808882752,
          41.719461278101
        ]
      },
      "properties": {
        "id": "251",
        "name": "Elk Mountain",
        "region_id": "313",
        "region": "Pennsylvania"
      }
    },
    {
      "type": "Feature",
      "geometry": {
        "type": "Point",
        "coordinates": [
          -75.6017303466797,
          41.0472525151724
        ]
      },
      "properties": {
        "id": "252",
        "name": "Big Boulder Ski Area",
        "region_id": "313",
        "region": "Pennsylvania"
      }
    },
    {
      "type": "Feature",
      "geometry": {
        "type": "Point",
        "coordinates": [
          -76.11407518386841,
          40.423967612674055
        ]
      },
      "properties": {
        "id": "253",
        "name": "Blue Marsh",
        "region_id": "313",
        "region": "Pennsylvania"
      }
    },
    {
      "type": "Feature",
      "geometry": {
        "type": "Point",
        "coordinates": [
          -75.3531646728516,
          41.0473819766077
        ]
      },
      "properties": {
        "id": "254",
        "name": "Jack Frost Ski Area",
        "region_id": "313",
        "region": "Pennsylvania"
      }
    },
    {
      "type": "Feature",
      "geometry": {
        "type": "Point",
        "coordinates": [
          -75.22579193115234,
          41.11350344637792
        ]
      },
      "properties": {
        "id": "255",
        "name": "Alpine Mountain",
        "region_id": "313",
        "region": "Pennsylvania"
      }
    },
    {
      "type": "Feature",
      "geometry": {
        "type": "Point",
        "coordinates": [
          -75.6278228759766,
          40.4755501467135
        ]
      },
      "properties": {
        "id": "256",
        "name": "Bear Creek Ski & Recreation Area",
        "region_id": "313",
        "region": "Pennsylvania"
      }
    },
    {
      "type": "Feature",
      "geometry": {
        "type": "Point",
        "coordinates": [
          -77.752617,
          40.768387
        ]
      },
      "properties": {
        "id": "257",
        "name": "Tussey Mountain",
        "region_id": "313",
        "region": "Pennsylvania"
      }
    },
    {
      "type": "Feature",
      "geometry": {
        "type": "Point",
        "coordinates": [
          -75.5136680603027,
          40.8140690696122
        ]
      },
      "properties": {
        "id": "258",
        "name": "Blue Mountain Ski Area",
        "region_id": "313",
        "region": "Pennsylvania"
      }
    },
    {
      "type": "Feature",
      "geometry": {
        "type": "Point",
        "coordinates": [
          -79.74684430000002,
          40.4614835
        ]
      },
      "properties": {
        "id": "259",
        "name": "Boyce Park Ski Area",
        "region_id": "313",
        "region": "Pennsylvania"
      }
    },
    {
      "type": "Feature",
      "geometry": {
        "type": "Point",
        "coordinates": [
          -77.9366683959961,
          39.745342142784
        ]
      },
      "properties": {
        "id": "260",
        "name": "Whitetail Ski Resort",
        "region_id": "313",
        "region": "Pennsylvania"
      }
    },
    {
      "type": "Feature",
      "geometry": {
        "type": "Point",
        "coordinates": [
          -75.4534149169922,
          40.2707507551508
        ]
      },
      "properties": {
        "id": "261",
        "name": "Spring Mountain Ski Area",
        "region_id": "313",
        "region": "Pennsylvania"
      }
    },
    {
      "type": "Feature",
      "geometry": {
        "type": "Point",
        "coordinates": [
          -77.2901916503906,
          41.5161612878866
        ]
      },
      "properties": {
        "id": "262",
        "name": "Ski Sawmill",
        "region_id": "313",
        "region": "Pennsylvania"
      }
    },
    {
      "type": "Feature",
      "geometry": {
        "type": "Point",
        "coordinates": [
          -121.756410598755,
          45.2967468753253
        ]
      },
      "properties": {
        "id": "263",
        "name": "Mt. Hood SkiBowl",
        "region_id": "312",
        "region": "Oregon"
      }
    },
    {
      "type": "Feature",
      "geometry": {
        "type": "Point",
        "coordinates": [
          -118.2348,
          44.9637
        ]
      },
      "properties": {
        "id": "264",
        "name": "Anthony Lakes Mountain Resort",
        "region_id": "312",
        "region": "Oregon"
      }
    },
    {
      "type": "Feature",
      "geometry": {
        "type": "Point",
        "coordinates": [
          -117.1125841140747,
          45.2822849040753
        ]
      },
      "properties": {
        "id": "265",
        "name": "Ferguson Ridge",
        "region_id": "312",
        "region": "Oregon"
      }
    },
    {
      "type": "Feature",
      "geometry": {
        "type": "Point",
        "coordinates": [
          -121.711950302124,
          45.3309699127698
        ]
      },
      "properties": {
        "id": "266",
        "name": "Timberline Ski Area",
        "region_id": "312",
        "region": "Oregon"
      }
    },
    {
      "type": "Feature",
      "geometry": {
        "type": "Point",
        "coordinates": [
          -122.03166666667,
          43.601666666667
        ]
      },
      "properties": {
        "id": "267",
        "name": "Willamette Pass",
        "region_id": "312",
        "region": "Oregon"
      }
    },
    {
      "type": "Feature",
      "geometry": {
        "type": "Point",
        "coordinates": [
          -121.872,
          44.409
        ]
      },
      "properties": {
        "id": "268",
        "name": "Hoodoo Ski Area",
        "region_id": "312",
        "region": "Oregon"
      }
    },
    {
      "type": "Feature",
      "geometry": {
        "type": "Point",
        "coordinates": [
          -118.048052787781,
          45.75710408209
        ]
      },
      "properties": {
        "id": "269",
        "name": "Spout Springs",
        "region_id": "312",
        "region": "Oregon"
      }
    },
    {
      "type": "Feature",
      "geometry": {
        "type": "Point",
        "coordinates": [
          -121.6845314007,
          43.991399869935
        ]
      },
      "properties": {
        "id": "270",
        "name": "Mt. Bachelor",
        "region_id": "312",
        "region": "Oregon"
      }
    },
    {
      "type": "Feature",
      "geometry": {
        "type": "Point",
        "coordinates": [
          -121.66521879191,
          45.337326845838
        ]
      },
      "properties": {
        "id": "271",
        "name": "Mt. Hood Meadows Ski Resort",
        "region_id": "312",
        "region": "Oregon"
      }
    },
    {
      "type": "Feature",
      "geometry": {
        "type": "Point",
        "coordinates": [
          -121.60540000000003,
          45.4125
        ]
      },
      "properties": {
        "id": "272",
        "name": "Cooper Spur Ski Area",
        "region_id": "312",
        "region": "Oregon"
      }
    },
    {
      "type": "Feature",
      "geometry": {
        "type": "Point",
        "coordinates": [
          -121.74576759338379,
          45.30302566447785
        ]
      },
      "properties": {
        "id": "273",
        "name": "Summit Ski Area",
        "region_id": "312",
        "region": "Oregon"
      }
    },
    {
      "type": "Feature",
      "geometry": {
        "type": "Point",
        "coordinates": [
          -122.71666666667,
          42.083333333333
        ]
      },
      "properties": {
        "id": "274",
        "name": "Mt. Ashland Ski & Snowboard Resort",
        "region_id": "312",
        "region": "Oregon"
      }
    },
    {
      "type": "Feature",
      "geometry": {
        "type": "Point",
        "coordinates": [
          -82.41228818893433,
          40.59352317160978
        ]
      },
      "properties": {
        "id": "275",
        "name": "Clear Fork Ski Area",
        "region_id": "310",
        "region": "Ohio"
      }
    },
    {
      "type": "Feature",
      "geometry": {
        "type": "Point",
        "coordinates": [
          -81.5649032592773,
          41.2638722338955
        ]
      },
      "properties": {
        "id": "276",
        "name": "Boston Mills",
        "region_id": "310",
        "region": "Ohio"
      }
    },
    {
      "type": "Feature",
      "geometry": {
        "type": "Point",
        "coordinates": [
          -81.25883102416992,
          41.528499441034064
        ]
      },
      "properties": {
        "id": "277",
        "name": "Alpine Valley Ski Area",
        "region_id": "310",
        "region": "Ohio"
      }
    },
    {
      "type": "Feature",
      "geometry": {
        "type": "Point",
        "coordinates": [
          -83.680563888889,
          40.316316666667
        ]
      },
      "properties": {
        "id": "278",
        "name": "Mad River Mountain",
        "region_id": "310",
        "region": "Ohio"
      }
    },
    {
      "type": "Feature",
      "geometry": {
        "type": "Point",
        "coordinates": [
          -82.5018739700317,
          40.6710690934658
        ]
      },
      "properties": {
        "id": "279",
        "name": "Snow Trails",
        "region_id": "310",
        "region": "Ohio"
      }
    },
    {
      "type": "Feature",
      "geometry": {
        "type": "Point",
        "coordinates": [
          -100.47194480896,
          48.9505209893576
        ]
      },
      "properties": {
        "id": "280",
        "name": "Bottineau Winter Park",
        "region_id": "309",
        "region": "North Dakota"
      }
    },
    {
      "type": "Feature",
      "geometry": {
        "type": "Point",
        "coordinates": [
          -97.9371070861816,
          46.5314100131139
        ]
      },
      "properties": {
        "id": "281",
        "name": "Bears Den Mountain",
        "region_id": "309",
        "region": "North Dakota"
      }
    },
    {
      "type": "Feature",
      "geometry": {
        "type": "Point",
        "coordinates": [
          -100.723514556885,
          46.6268800753185
        ]
      },
      "properties": {
        "id": "282",
        "name": "Huff Hills",
        "region_id": "309",
        "region": "North Dakota"
      }
    },
    {
      "type": "Feature",
      "geometry": {
        "type": "Point",
        "coordinates": [
          -98.0661964416504,
          48.9106543703518
        ]
      },
      "properties": {
        "id": "283",
        "name": "Frost Fire Ski and Snow Board",
        "region_id": "309",
        "region": "North Dakota"
      }
    },
    {
      "type": "Feature",
      "geometry": {
        "type": "Point",
        "coordinates": [
          -83.05873274803162,
          35.124151487304616
        ]
      },
      "properties": {
        "id": "284",
        "name": "Sapphire Valley",
        "region_id": "308",
        "region": "North Carolina"
      }
    },
    {
      "type": "Feature",
      "geometry": {
        "type": "Point",
        "coordinates": [
          -81.663179397583,
          36.1737033620756
        ]
      },
      "properties": {
        "id": "285",
        "name": "Appalachian Ski Mtn.",
        "region_id": "308",
        "region": "North Carolina"
      }
    },
    {
      "type": "Feature",
      "geometry": {
        "type": "Point",
        "coordinates": [
          -81.82634353637695,
          36.14286537528354
        ]
      },
      "properties": {
        "id": "286",
        "name": "Hawksnest Golf & Ski Resort",
        "region_id": "308",
        "region": "North Carolina"
      }
    },
    {
      "type": "Feature",
      "geometry": {
        "type": "Point",
        "coordinates": [
          -81.8787002563477,
          36.1885289958181
        ]
      },
      "properties": {
        "id": "287",
        "name": "Beech Mountain Ski Resort",
        "region_id": "308",
        "region": "North Carolina"
      }
    },
    {
      "type": "Feature",
      "geometry": {
        "type": "Point",
        "coordinates": [
          -83.08965,
          35.563061111111
        ]
      },
      "properties": {
        "id": "288",
        "name": "Cataloochee Ski Area",
        "region_id": "308",
        "region": "North Carolina"
      }
    },
    {
      "type": "Feature",
      "geometry": {
        "type": "Point",
        "coordinates": [
          -82.5058972835541,
          35.9495667534677
        ]
      },
      "properties": {
        "id": "289",
        "name": "Wolf Laurel Ski Resort",
        "region_id": "308",
        "region": "North Carolina"
      }
    },
    {
      "type": "Feature",
      "geometry": {
        "type": "Point",
        "coordinates": [
          -81.866340637207,
          36.1277538007934
        ]
      },
      "properties": {
        "id": "290",
        "name": "Sugar Mountain Resort",
        "region_id": "308",
        "region": "North Carolina"
      }
    },
    {
      "type": "Feature",
      "geometry": {
        "type": "Point",
        "coordinates": [
          -74.5071315765381,
          43.0836210122611
        ]
      },
      "properties": {
        "id": "291",
        "name": "Royal Mountain",
        "region_id": "307",
        "region": "New York"
      }
    },
    {
      "type": "Feature",
      "geometry": {
        "type": "Point",
        "coordinates": [
          -78.6581611633301,
          42.6008618027895
        ]
      },
      "properties": {
        "id": "292",
        "name": "Kissing Bridge",
        "region_id": "307",
        "region": "New York"
      }
    },
    {
      "type": "Feature",
      "geometry": {
        "type": "Point",
        "coordinates": [
          -74.6539878845215,
          42.2891197679707
        ]
      },
      "properties": {
        "id": "293",
        "name": "Ski Plattekill",
        "region_id": "307",
        "region": "New York"
      }
    },
    {
      "type": "Feature",
      "geometry": {
        "type": "Point",
        "coordinates": [
          -74.3621635437012,
          43.5171864703365
        ]
      },
      "properties": {
        "id": "294",
        "name": "Oak Mountain Ski Center",
        "region_id": "307",
        "region": "New York"
      }
    },
    {
      "type": "Feature",
      "geometry": {
        "type": "Point",
        "coordinates": [
          -73.879933547967,
          44.359915477581
        ]
      },
      "properties": {
        "id": "295",
        "name": "Whiteface Mountain - Lake Placid",
        "region_id": "307",
        "region": "New York"
      }
    },
    {
      "type": "Feature",
      "geometry": {
        "type": "Point",
        "coordinates": [
          -74.118404,
          42.189737
        ]
      },
      "properties": {
        "id": "296",
        "name": "Cortina Valley",
        "region_id": "307",
        "region": "New York"
      }
    },
    {
      "type": "Feature",
      "geometry": {
        "type": "Point",
        "coordinates": [
          -76.1465835571289,
          42.5027310868904
        ]
      },
      "properties": {
        "id": "297",
        "name": "Greek Peak Ski Resort",
        "region_id": "307",
        "region": "New York"
      }
    },
    {
      "type": "Feature",
      "geometry": {
        "type": "Point",
        "coordinates": [
          -73.81705284118652,
          43.47427115876134
        ]
      },
      "properties": {
        "id": "298",
        "name": "Hickory Ski Center",
        "region_id": "307",
        "region": "New York"
      }
    },
    {
      "type": "Feature",
      "geometry": {
        "type": "Point",
        "coordinates": [
          -74.2277956008911,
          41.2459178486654
        ]
      },
      "properties": {
        "id": "299",
        "name": "Tuxedo Ridge",
        "region_id": "307",
        "region": "New York"
      }
    },
    {
      "type": "Feature",
      "geometry": {
        "type": "Point",
        "coordinates": [
          -73.5809755325317,
          41.5082880598764
        ]
      },
      "properties": {
        "id": "300",
        "name": "Thunder Ridge",
        "region_id": "307",
        "region": "New York"
      }
    },
    {
      "type": "Feature",
      "geometry": {
        "type": "Point",
        "coordinates": [
          -74.7439384460449,
          42.2248310548184
        ]
      },
      "properties": {
        "id": "301",
        "name": "Bobcat Ski Center",
        "region_id": "307",
        "region": "New York"
      }
    },
    {
      "type": "Feature",
      "geometry": {
        "type": "Point",
        "coordinates": [
          -79.736666666667,
          42.0625
        ]
      },
      "properties": {
        "id": "302",
        "name": "Peek'n Peak Ski Area",
        "region_id": "307",
        "region": "New York"
      }
    },
    {
      "type": "Feature",
      "geometry": {
        "type": "Point",
        "coordinates": [
          -79.1664505004883,
          42.2644475136505
        ]
      },
      "properties": {
        "id": "303",
        "name": "Cockaigne Ski Resort",
        "region_id": "307",
        "region": "New York"
      }
    },
    {
      "type": "Feature",
      "geometry": {
        "type": "Point",
        "coordinates": [
          -75.9016227722168,
          43.9311261894552
        ]
      },
      "properties": {
        "id": "304",
        "name": "Dry Hill Ski Area",
        "region_id": "307",
        "region": "New York"
      }
    },
    {
      "type": "Feature",
      "geometry": {
        "type": "Point",
        "coordinates": [
          -75.9640645980835,
          42.8258131056611
        ]
      },
      "properties": {
        "id": "305",
        "name": "Toggenburg Ski Center",
        "region_id": "307",
        "region": "New York"
      }
    },
    {
      "type": "Feature",
      "geometry": {
        "type": "Point",
        "coordinates": [
          -76.0356473922729,
          42.7397947671525
        ]
      },
      "properties": {
        "id": "306",
        "name": "Labrador Mountain",
        "region_id": "307",
        "region": "New York"
      }
    },
    {
      "type": "Feature",
      "geometry": {
        "type": "Point",
        "coordinates": [
          -74.2935419082642,
          41.2463534581944
        ]
      },
      "properties": {
        "id": "307",
        "name": "Mt. Peter Ski Area",
        "region_id": "307",
        "region": "New York"
      }
    },
    {
      "type": "Feature",
      "geometry": {
        "type": "Point",
        "coordinates": [
          -76.1622047424316,
          42.7719672040121
        ]
      },
      "properties": {
        "id": "308",
        "name": "Song Mountain",
        "region_id": "307",
        "region": "New York"
      }
    },
    {
      "type": "Feature",
      "geometry": {
        "type": "Point",
        "coordinates": [
          -77.06570148468018,
          43.150048947611836
        ]
      },
      "properties": {
        "id": "309",
        "name": "Brantling Ski Slopes",
        "region_id": "307",
        "region": "New York"
      }
    },
    {
      "type": "Feature",
      "geometry": {
        "type": "Point",
        "coordinates": [
          -77.8549575805664,
          42.4731098490491
        ]
      },
      "properties": {
        "id": "310",
        "name": "Swain Ski & Snowboard Resort",
        "region_id": "307",
        "region": "New York"
      }
    },
    {
      "type": "Feature",
      "geometry": {
        "type": "Point",
        "coordinates": [
          -74.6107292175293,
          41.6276652967621
        ]
      },
      "properties": {
        "id": "311",
        "name": "Holiday Mountain",
        "region_id": "307",
        "region": "New York"
      }
    },